{"shipping_price": 0, "shipping_description": "De 2 a 5 dias laborables. - Estándar", "puntos_ganados": 0.26, "items": [{"cantidad": 1, "iva": 21, "sku": "4070W210089-44", "pvpunitarioiva": 14.9, "pvpsindtoiva": 14.9, "pvptotaliva": 14.9, "ivaincluido": 14.9}], "tax_amount": 2.59, "shipping_address": {"firstname": "Roberto", "country_id": "ES", "city": "Oviedo ", "email": "rglloria@gmail.com", "middlename": "None", "type": "shipping", "street": "C\nJulio alvarez mendo \n16\n2c", "region": "Asturias", "telephone": "657926367", "postcode": "33010", "company": "None", "lastname": "Garcia Lloria", "region_id": "135"}, "grand_total": 18.07, "shipping_method": "tablerate_bestway", "units": "1.0000", "currency": "EUR", "discount_amount": -1.78, "payment_method": "paypal_express", "vale_total": 0, "stockId": 2, "billing_address": {"firstname": "Roberto", "country_id": "ES", "city": "Oviedo ", "email": "rglloria@gmail.com", "middlename": "None", "type": "billing", "street": "C\nJulio alvarez mendo \n16\n2c", "region": "Asturias", "telephone": "657926367", "postcode": "33010", "company": "None", "lastname": "Garcia Lloria", "region_id": "135"}, "gift": {"recipient": "None", "message": "ADMIN-> No envolver para regalo", "sender": "None"}, "entity_id": 702960, "vale_description": "None", "customer_id": "128212", "vale_codigo_cliente": "None", "created_at": "2021-10-17 09:51:28", "weight": 0.1, "email": "rglloria@gmail.com", "increment_id": "1020568493", "subtotal": 12.31, "discount_description": "None", "puntos_gastados": 1.78, "cif": "", "almacenes": [{"country_id": "ES", "city": "Boadilla del Monte", "fax": "None", "description": "None", "frontend_name": "WEB", "latitude": "None", "phone": "949329766", "name": "WEB", "postcode": "28660", "region_id": "161", "use_default_carrier_config": "1", "source_code": "AWEB", "longitude": "None", "contact_name": "IDL Dpto. Ecommerce", "region": "Madrid", "extension_attributes": {}, "email": "atencioncliente@elganso.com", "carrier_links": [], "street": "C/ Impresores ", "frontend_description": "None", "enabled": "1", "is_pickup_location_active": "0"}, {"country_id": "ES", "city": "Boadilla del Monte", "fax": "None", "description": "Logifashion Web", "frontend_name": "Logifashion Web", "latitude": "None", "phone": "00000000", "name": "Logifashion Web", "postcode": "28660", "region_id": "161", "use_default_carrier_config": "1", "source_code": "LFWB", "longitude": "None", "contact_name": "El Ganso LOGIS", "region": "Madrid", "extension_attributes": {}, "email": "atencioncliente@elganso.com", "carrier_links": [], "street": "Impresores 14", "frontend_description": "None", "enabled": "1", "is_pickup_location_active": "0"}, {"country_id": "ES", "city": "Valencia ", "fax": "None", "description": "El Ganso Valencia", "frontend_name": "Valencia", "latitude": "None", "phone": "963513014", "name": "Valencia", "postcode": "46004", "region_id": "177", "use_default_carrier_config": "1", "source_code": "AVAL", "longitude": "None", "contact_name": "El Ganso", "region": "Valencia", "extension_attributes": {}, "email": "valencia@elganso.com", "carrier_links": [], "street": "Jorge Juan 14", "frontend_description": "None", "enabled": "1", "is_pickup_location_active": "0"}, {"country_id": "ES", "city": "Majadahonda", "fax": "None", "description": "El Ganso Gran Plaza 2", "frontend_name": "Gran Plaza", "latitude": "None", "phone": "911724418", "name": "Gran Plaza", "postcode": "28222", "region_id": "161", "use_default_carrier_config": "1", "source_code": "AGPZ", "longitude": "None", "contact_name": "El Ganso Gran Plaza", "region": "Madrid", "extension_attributes": {}, "email": "granplaza2@elganso.com", "carrier_links": [], "street": "Urbanización Carril del Tejar", "frontend_description": "None", "enabled": "1", "is_pickup_location_active": "0"}, {"country_id": "ES", "city": "Ourense", "fax": "None", "description": "EL Ganso Ourense", "frontend_name": "Ourense", "latitude": "None", "phone": "988218044", "name": "Ourense", "postcode": "32003", "region_id": "166", "use_default_carrier_config": "1", "source_code": "AOUR", "longitude": "None", "contact_name": "EL Ganso Ourense", "region": "Ourense", "extension_attributes": {}, "email": "ourense@elganso.com", "carrier_links": [], "street": "Rua do Paseo, 38", "frontend_description": "None", "enabled": "1", "is_pickup_location_active": "0"}, {"country_id": "ES", "city": "Almeria", "fax": "None", "description": "El Ganso Almeria", "frontend_name": "Almeria", "latitude": "None", "phone": "950275731", "name": "Almeria", "postcode": "04001", "region_id": "134", "use_default_carrier_config": "1", "source_code": "AALM", "longitude": "None", "contact_name": "El Ganso", "region": "Almería", "extension_attributes": {}, "email": "almeria@elganso.com", "carrier_links": [], "street": "Paseo de Almería, 14", "frontend_description": "None", "enabled": "1", "is_pickup_location_active": "0"}, {"country_id": "ES", "city": "Valencia", "fax": "None", "description": "El Ganso C.C. Aqua", "frontend_name": "Aqua", "latitude": "None", "phone": "961228726", "name": "Aqua", "postcode": "46023", "region_id": "177", "use_default_carrier_config": "1", "source_code": "AAQU", "longitude": "None", "contact_name": "El Ganso", "region": "Valencia", "extension_attributes": {}, "email": "aquavalencia@elganso.com", "carrier_links": [], "street": "Carrer de Menorca, 19", "frontend_description": "None", "enabled": "1", "is_pickup_location_active": "0"}, {"country_id": "ES", "city": "Madrid", "fax": "None", "description": "El Ganso Arturo Soria", "frontend_name": "Arturo Soria", "latitude": "None", "phone": "913002196", "name": "Arturo Soria", "postcode": "28043", "region_id": "161", "use_default_carrier_config": "1", "source_code": "AASP", "longitude": "None", "contact_name": "El Ganso", "region": "Madrid", "extension_attributes": {}, "email": "arturosoria@elganso.com", "carrier_links": [], "street": "Calle de Arturo Soria, 126", "frontend_description": "None", "enabled": "1", "is_pickup_location_active": "0"}, {"country_id": "ES", "city": "Badajoz", "fax": "None", "description": "El Ganso Badajoz", "frontend_name": "Badajoz", "latitude": "None", "phone": "924266866", "name": "Badajoz", "postcode": "06006", "region_id": "137", "use_default_carrier_config": "1", "source_code": "ABAZ", "longitude": "None", "contact_name": "El Ganso", "region": "Badajoz", "extension_attributes": {}, "email": "badajoz@elganso.com", "carrier_links": [], "street": "C.C. El Faro, Avda. de Elvas s/n", "frontend_description": "None", "enabled": "1", "is_pickup_location_active": "0"}, {"country_id": "ES", "city": "Bilbao", "fax": "None", "description": "El Ganso Bilbao", "frontend_name": "Bilbao", "latitude": "None", "phone": "946 791 761", "name": "Bilbao", "postcode": "48008", "region_id": "591", "use_default_carrier_config": "1", "source_code": "ABIL", "longitude": "None", "contact_name": "EL Ganso", "region": "Bilbao", "extension_attributes": {}, "email": "bilbao@elganso.com", "carrier_links": [], "street": "MARQUES DEL PUERTO, 8", "frontend_description": "None", "enabled": "1", "is_pickup_location_active": "0"}, {"country_id": "ES", "city": "Aldaia", "fax": "None", "description": "El Ganso C.C. Bonaire", "frontend_name": "C.C. Bonaire", "latitude": "None", "phone": "961579248", "name": "C.C. Bonaire", "postcode": "46960", "region_id": "177", "use_default_carrier_config": "1", "source_code": "ABON", "longitude": "None", "contact_name": "El Ganso", "region": "Valencia", "extension_attributes": {}, "email": "bonairevalencia@elganso.com", "carrier_links": [], "street": "Carretera A-3, Km 345,", "frontend_description": "None", "enabled": "1", "is_pickup_location_active": "0"}, {"country_id": "ES", "city": "Marbella", "fax": "None", "description": "El Ganso Marbella", "frontend_name": "Marbella", "latitude": "None", "phone": "952824337", "name": "Marbella", "postcode": "29600", "region_id": "162", "use_default_carrier_config": "1", "source_code": "ACAD", "longitude": "None", "contact_name": "El Ganso C.C. La Cañada", "region": "Málaga", "extension_attributes": {}, "email": "lacanadamalaga@elganso.com", "carrier_links": [], "street": "Carretera de Ojén s/n", "frontend_description": "None", "enabled": "1", "is_pickup_location_active": "0"}, {"country_id": "ES", "city": "Madrid", "fax": "None", "description": "El Ganso Castellana", "frontend_name": "Castellana", "latitude": "None", "phone": "917048787", "name": "Castellana", "postcode": "28046", "region_id": "161", "use_default_carrier_config": "1", "source_code": "ACAS", "longitude": "None", "contact_name": "El Ganso", "region": "Madrid", "extension_attributes": {}, "email": "castellana@elganso.com", "carrier_links": [], "street": "Paseo de la Castellana, 200", "frontend_description": "None", "enabled": "1", "is_pickup_location_active": "0"}, {"country_id": "ES", "city": "Córdoba", "fax": "None", "description": "El Ganso Córdoba", "frontend_name": "Córdoba", "latitude": "None", "phone": "957485054", "name": "Córdoba", "postcode": "14008", "region_id": "147", "use_default_carrier_config": "1", "source_code": "ACBA", "longitude": "None", "contact_name": "El Ganso", "region": "Córdoba", "extension_attributes": {}, "email": "cordoba@elganso.com", "carrier_links": [], "street": "c/ Foro Romano, 11", "frontend_description": "None", "enabled": "1", "is_pickup_location_active": "0"}, {"country_id": "ES", "city": "Majadahonda", "fax": "None", "description": "El Ganso Centro Oeste", "frontend_name": "Centro Oeste", "latitude": "None", "phone": "916395653", "name": "Centro Oeste", "postcode": "28222", "region_id": "161", "use_default_carrier_config": "1", "source_code": "ACCO", "longitude": "None", "contact_name": "El Ganso", "region": "Madrid", "extension_attributes": {}, "email": "centroeste@elganso.com", "carrier_links": [], "street": "C/ de las Moreras, 2", "frontend_description": "None", "enabled": "1", "is_pickup_location_active": "0"}, {"country_id": "ES", "city": "Madrid", "fax": "None", "description": "El Ganso Nikarit", "frontend_name": "Nikarit", "latitude": "None", "phone": "639916529", "name": "Nikarit", "postcode": "28042", "region_id": "161", "use_default_carrier_config": "1", "source_code": "NKRT", "longitude": "None", "contact_name": " José María Elola", "region": "Madrid", "extension_attributes": {}, "email": "josemaria.elola@nikarit.org", "carrier_links": [], "street": "Calle Autogiro 7, 1B", "frontend_description": "None", "enabled": "1", "is_pickup_location_active": "0"}, {"country_id": "ES", "city": "Almazora", "fax": "None", "description": "El Ganso Ofelia Home", "frontend_name": "Ofelia Home", "latitude": "None", "phone": "￼￼649381204", "name": "Ofelia Home", "postcode": "12550", "region_id": "144", "use_default_carrier_config": "1", "source_code": "OFEL", "longitude": "None", "contact_name": "OFELIA HOME DECOR", "region": "Castellón", "extension_attributes": {}, "email": "munoz@franciscosegarra.es", "carrier_links": [], "street": "c/Industria, parcela 11, pol. Ind. Mijares", "frontend_description": "None", "enabled": "1", "is_pickup_location_active": "0"}, {"country_id": "ES", "city": "Madrid", "fax": "None", "description": "El Ganso Ramsos", "frontend_name": "Ramsos", "latitude": "None", "phone": "649058522", "name": "Ramsos", "postcode": "28010", "region_id": "161", "use_default_carrier_config": "1", "source_code": "RMSS", "longitude": "None", "contact_name": "Ramiro Mato", "region": "Madrid", "extension_attributes": {}, "email": "hello@ramsos.com", "carrier_links": [], "street": "Marqués de Riscal, Núm. 9 (Sótano) Estudio María Parlade", "frontend_description": "None", "enabled": "1", "is_pickup_location_active": "0"}, {"country_id": "ES", "city": "Madrid", "fax": "None", "description": "El Ganso Tiwi", "frontend_name": "Tiwi", "latitude": "None", "phone": "655950224", "name": "Tiwi", "postcode": "28028", "region_id": "161", "use_default_carrier_config": "1", "source_code": "TIWI", "longitude": "None", "contact_name": "Ana", "region": "Madrid", "extension_attributes": {}, "email": "comunicacion@tiwiworld.com", "carrier_links": [], "street": "Calle Ruíz Perelló, 3, Entreplanta B", "frontend_description": "None", "enabled": "1", "is_pickup_location_active": "0"}, {"country_id": "ES", "city": "Ciudad de Santo Domingo (Algete)", "fax": "None", "description": "El Ganso  Vela Market", "frontend_name": " Vela Market", "latitude": "None", "phone": "655912188", "name": " Vela Market", "postcode": "28120", "region_id": "161", "use_default_carrier_config": "1", "source_code": "VLMK", "longitude": "None", "contact_name": "Alejandra López ", "region": "Madrid", "extension_attributes": {}, "email": "alejandra@velamarket.com", "carrier_links": [], "street": "Avenida de Guadalix 31 1º dcha. A", "frontend_description": "None", "enabled": "1", "is_pickup_location_active": "0"}, {"country_id": "ES", "city": "San Fernando de Henares", "fax": "None", "description": "El Ganso Hemper", "frontend_name": "Hemper", "latitude": "None", "phone": "677895043", "name": "Hemper", "postcode": "28830", "region_id": "161", "use_default_carrier_config": "1", "source_code": "HMPR", "longitude": "None", "contact_name": "Monica Zaldumbide Alcocer", "region": "Madrid", "extension_attributes": {}, "email": "monica@hemper.es", "carrier_links": [], "street": "C/ TAPICEROS, 5, MODULO K", "frontend_description": "None", "enabled": "1", "is_pickup_location_active": "0"}, {"country_id": "ES", "city": "Madrid", "fax": "None", "description": "El Ganso La Gavia", "frontend_name": "La Gavia", "latitude": "None", "phone": "None", "name": "La Gavia", "postcode": "28051", "region_id": "161", "use_default_carrier_config": "1", "source_code": "ACLG", "longitude": "None", "contact_name": "La Gavia", "region": "Madrid", "extension_attributes": {}, "email": "lagavia@elganso.com", "carrier_links": [], "street": "Adolfo Bioy Casares", "frontend_description": "None", "enabled": "1", "is_pickup_location_active": "0"}, {"country_id": "ES", "city": "Churra", "fax": "None", "description": "El Ganso Nueva Condomina", "frontend_name": "Nueva Condomina", "latitude": "None", "phone": "None", "name": "Nueva Condomina", "postcode": "30110", "region_id": "164", "use_default_carrier_config": "1", "source_code": "ACNC", "longitude": "None", "contact_name": "El Ganso", "region": "Murcia", "extension_attributes": {}, "email": "nuevacondomina@elganso.com", "carrier_links": [], "street": "Autovía del Mediterráneo, A-7, KM. 760", "frontend_description": "None", "enabled": "1", "is_pickup_location_active": "0"}, {"country_id": "ES", "city": "Castellón", "fax": "None", "description": "None", "frontend_name": "Castellón", "latitude": "None", "phone": "964226701", "name": "Castellón", "postcode": "12001", "region_id": "144", "use_default_carrier_config": "1", "source_code": "ACON", "longitude": "None", "contact_name": "El Ganso", "region": "Castellón", "extension_attributes": {}, "email": "castellon@elganso.com", "carrier_links": [], "street": "C/ de Enmedio, 34", "frontend_description": "None", "enabled": "1", "is_pickup_location_active": "0"}, {"country_id": "ES", "city": "A coruña", "fax": "None", "description": "El Ganso Fonseca", "frontend_name": "Fonseca", "latitude": "None", "phone": "981229663", "name": "Fonseca", "postcode": "15004", "region_id": "130", "use_default_carrier_config": "1", "source_code": "ACOR", "longitude": "None", "contact_name": "El Ganso", "region": "A Coruña", "extension_attributes": {}, "email": "fonsecacoruna@elganso.com", "carrier_links": [], "street": "Fonseca, 7", "frontend_description": "None", "enabled": "1", "is_pickup_location_active": "0"}, {"country_id": "ES", "city": "Madrid", "fax": "None", "description": "El Ganso Plenilunio", "frontend_name": "Plenilunio", "latitude": "None", "phone": "None", "name": "Plenilunio", "postcode": "28022", "region_id": "161", "use_default_carrier_config": "1", "source_code": "ACPL", "longitude": "None", "contact_name": "Plenilunio", "region": "Madrid", "extension_attributes": {}, "email": "plenilunio@elganso.com", "carrier_links": [], "street": "Calle de Aracne", "frontend_description": "None", "enabled": "1", "is_pickup_location_active": "0"}, {"country_id": "ES", "city": "Madrid", "fax": "None", "description": "El Ganso Principe Pio", "frontend_name": "Principe Pio", "latitude": "None", "phone": "None", "name": "Principe Pio", "postcode": "28008", "region_id": "161", "use_default_carrier_config": "1", "source_code": "ACPP", "longitude": "None", "contact_name": "Principe Pio", "region": "Madrid", "extension_attributes": {}, "email": "principepio@elganso.com", "carrier_links": [], "street": "Paseo de la Florida", "frontend_description": "None", "enabled": "1", "is_pickup_location_active": "0"}, {"country_id": "ES", "city": "Madrid", "fax": "None", "description": "Fuencarral 20", "frontend_name": "Fuencarral 20", "latitude": "None", "phone": "915224759", "name": "Fuencarral 20", "postcode": "28004", "region_id": "161", "use_default_carrier_config": "1", "source_code": "AF20", "longitude": "None", "contact_name": "El Ganso", "region": "Madrid", "extension_attributes": {}, "email": "fuencarral20@elganso.com", "carrier_links": [], "street": "Fuencarral, 20", "frontend_description": "None", "enabled": "1", "is_pickup_location_active": "0"}, {"country_id": "ES", "city": "Gijon", "fax": "None", "description": "El Ganso Gijón", "frontend_name": "Gijón", "latitude": "None", "phone": "985344259", "name": "Gijón", "postcode": "33206", "region_id": "588", "use_default_carrier_config": "1", "source_code": "AGIJ", "longitude": "None", "contact_name": "El Ganso", "region": "Gijon", "extension_attributes": {}, "email": "gijon@elganso.com", "carrier_links": [], "street": "C/ Corrida, 18 ", "frontend_description": "None", "enabled": "1", "is_pickup_location_active": "0"}, {"country_id": "ES", "city": "Granada", "fax": "None", "description": "El Ganso Granada", "frontend_name": "Granada", "latitude": "None", "phone": "958257383", "name": "Granada", "postcode": "18001", "region_id": "150", "use_default_carrier_config": "1", "source_code": "AGRA", "longitude": "None", "contact_name": "El Ganso", "region": "Granada", "extension_attributes": {}, "email": "granada@elganso.com", "carrier_links": [], "street": "Mesones, 32", "frontend_description": "None", "enabled": "1", "is_pickup_location_active": "0"}, {"country_id": "ES", "city": "Madrid", "fax": "None", "description": "Jorge Juan", "frontend_name": "Jorge Juan", "latitude": "None", "phone": "914358697", "name": "Jorge Juan", "postcode": "28001", "region_id": "161", "use_default_carrier_config": "1", "source_code": "AJJN", "longitude": "None", "contact_name": "El Ganso", "region": "Madrid", "extension_attributes": {}, "email": "jorgejuanmadrid@elganso.com", "carrier_links": [], "street": "Jorge Juan, 15", "frontend_description": "None", "enabled": "1", "is_pickup_location_active": "0"}, {"country_id": "ES", "city": "Sevilla", "fax": "None", "description": "El Ganso Lagoh", "frontend_name": "Lagoh", "latitude": "None", "phone": "954951650", "name": "Lagoh", "postcode": "41012", "region_id": "172", "use_default_carrier_config": "1", "source_code": "ALAG", "longitude": "None", "contact_name": "El Ganso", "region": "Sevilla", "extension_attributes": {}, "email": "lagohsevilla@elganso.com", "carrier_links": [], "street": "Av. de Palmas Altas", "frontend_description": "None", "enabled": "1", "is_pickup_location_active": "0"}, {"country_id": "ES", "city": "Logroño", "fax": "None", "description": "El Ganso Logroño", "frontend_name": "Logroño", "latitude": "None", "phone": "941274381", "name": "Logroño", "postcode": "26002", "region_id": "156", "use_default_carrier_config": "1", "source_code": "ALGR", "longitude": "None", "contact_name": "El Ganso", "region": "La Rioja", "extension_attributes": {}, "email": "logrono@elganso.com", "carrier_links": [], "street": "San Antón, 27", "frontend_description": "None", "enabled": "1", "is_pickup_location_active": "0"}, {"country_id": "ES", "city": "Alicante", "fax": "None", "description": "Alicante", "frontend_name": "Alicante", "latitude": "None", "phone": "965126405", "name": "Alicante", "postcode": "03003", "region_id": "133", "use_default_carrier_config": "1", "source_code": "ALIC", "longitude": "None", "contact_name": "El Ganso", "region": "Alicante", "extension_attributes": {}, "email": "alicante@elganso.com", "carrier_links": [], "street": "Avda. Maisonnave, 34", "frontend_description": "None", "enabled": "1", "is_pickup_location_active": "0"}, {"country_id": "ES", "city": "Barcelona", "fax": "None", "description": "El Ganso Lilla", "frontend_name": "Lilla", "latitude": "None", "phone": "938324001", "name": "Lilla", "postcode": "08029", "region_id": "139", "use_default_carrier_config": "1", "source_code": "ALIL", "longitude": "None", "contact_name": "El Ganso C.C. L illa", "region": "Barcelona", "extension_attributes": {}, "email": "lillabarcelona@elganso.com", "carrier_links": [], "street": "Avda. Diagonal, 557", "frontend_description": "None", "enabled": "1", "is_pickup_location_active": "0"}, {"country_id": "ES", "city": "Villaviciosa de Odón ", "fax": "None", "description": "El Ganso Altonadock", "frontend_name": "Altonadock", "latitude": "None", "phone": "916225990", "name": "Altonadock", "postcode": "28670", "region_id": "161", "use_default_carrier_config": "1", "source_code": "ALTD", "longitude": "None", "contact_name": "Paloma Jimeno ", "region": "Madrid", "extension_attributes": {}, "email": "palomajimeno@altonadock.com", "carrier_links": [], "street": "Florida 28 P.I. Quitapesares", "frontend_description": "None", "enabled": "1", "is_pickup_location_active": "0"}, {"country_id": "ES", "city": "La Orotava ", "fax": "None", "description": "El Ganso C.C. La Villa 2", "frontend_name": "C.C. La Villa 2", "latitude": "None", "phone": "922336794", "name": "C.C. La Villa 2", "postcode": "38312", "region_id": "170", "use_default_carrier_config": "1", "source_code": "ALVL", "longitude": "None", "contact_name": "El Ganso C.C. La Villa 2", "region": "Santa Cruz de Tenerife", "extension_attributes": {}, "email": "lavillatenerife@elganso.com", "carrier_links": [], "street": "Autopista del Norte, TF-5 Salida 36", "frontend_description": "None", "enabled": "1", "is_pickup_location_active": "0"}, {"country_id": "ES", "city": "Málaga", "fax": "None", "description": "El Ganso Malaga", "frontend_name": "Malaga", "latitude": "None", "phone": "952 60 96 25", "name": "Malaga", "postcode": "29005", "region_id": "162", "use_default_carrier_config": "1", "source_code": "AMAL", "longitude": "None", "contact_name": "El Ganso", "region": "Málaga", "extension_attributes": {}, "email": "malaga@elganso.com", "carrier_links": [], "street": "Plaza de la Constitución, 3", "frontend_description": "None", "enabled": "1", "is_pickup_location_active": "0"}, {"country_id": "ES", "city": "Barcelona", "fax": "None", "description": "El Ganso Maquinista", "frontend_name": "Maquinista", "latitude": "None", "phone": "933608942", "name": "Maquinista", "postcode": "08030", "region_id": "139", "use_default_carrier_config": "1", "source_code": "AMAQ", "longitude": "None", "contact_name": "El Ganso", "region": "Barcelona", "extension_attributes": {}, "email": "lamaquinista@elganso.com", "carrier_links": [], "street": "Paseo Potosí, 2", "frontend_description": "None", "enabled": "1", "is_pickup_location_active": "0"}, {"country_id": "ES", "city": "Alcobendas", "fax": "None", "description": "El Ganso C.C. La Moraleja Green", "frontend_name": "C.C. La Moraleja Green", "latitude": "None", "phone": "914840831", "name": "C.C. La Moraleja Green", "postcode": "28108", "region_id": "161", "use_default_carrier_config": "1", "source_code": "AMOR", "longitude": "None", "contact_name": "El Ganso", "region": "Madrid", "extension_attributes": {}, "email": "lamoralejamadrid@elganso.com", "carrier_links": [], "street": "Avda Europa, 13", "frontend_description": "None", "enabled": "1", "is_pickup_location_active": "0"}, {"country_id": "ES", "city": "Murcia", "fax": "None", "description": "El Ganso Murcia", "frontend_name": "Murcia", "latitude": "None", "phone": "968205498", "name": "Murcia", "postcode": "30009", "region_id": "164", "use_default_carrier_config": "1", "source_code": "AMUR", "longitude": "None", "contact_name": "El Ganso", "region": "Murcia", "extension_attributes": {}, "email": "murcia@elganso.com", "carrier_links": [], "street": "Avenida de la Libertad, 2", "frontend_description": "None", "enabled": "0", "is_pickup_location_active": "0"}, {"country_id": "ES", "city": "Granada", "fax": "None", "description": "El Ganso Nevada", "frontend_name": "Nevada", "latitude": "None", "phone": "958179973", "name": "Nevada", "postcode": "18100", "region_id": "150", "use_default_carrier_config": "1", "source_code": "ANEV", "longitude": "None", "contact_name": "EL Ganso C.C. Nevada", "region": "Granada", "extension_attributes": {}, "email": "nevadagranada@elganso.com", "carrier_links": [], "street": "Hipócrates s/n", "frontend_description": "None", "enabled": "1", "is_pickup_location_active": "0"}, {"country_id": "ES", "city": "Oviedo", "fax": "None", "description": "El Ganso Oviedo", "frontend_name": "Oviedo", "latitude": "None", "phone": "985227530", "name": "Oviedo", "postcode": "33002", "region_id": "587", "use_default_carrier_config": "1", "source_code": "AOVI", "longitude": "None", "contact_name": "El Ganso", "region": "Oviedo", "extension_attributes": {}, "email": "oviedo@elganso.com", "carrier_links": [], "street": "C/ Palacio Valdés, 5", "frontend_description": "None", "enabled": "1", "is_pickup_location_active": "0"}, {"country_id": "ES", "city": "Pamplona", "fax": "None", "description": "El Ganso Pamplona", "frontend_name": "Pamplona", "latitude": "None", "phone": "948231397", "name": "Pamplona", "postcode": "31191", "region_id": "165", "use_default_carrier_config": "1", "source_code": "APAM", "longitude": "None", "contact_name": "El Ganso", "region": "Navarra", "extension_attributes": {}, "email": "pamplona@elganso.com", "carrier_links": [], "street": "C.C. La Morea s/n", "frontend_description": "None", "enabled": "1", "is_pickup_location_active": "0"}, {"country_id": "ES", "city": "Alicante", "fax": "None", "description": "El Ganso Plaza Mar", "frontend_name": "Plaza Mar", "latitude": "None", "phone": "965220705", "name": "Plaza Mar", "postcode": "03016", "region_id": "133", "use_default_carrier_config": "1", "source_code": "APLM", "longitude": "None", "contact_name": "El Ganso", "region": "Alicante", "extension_attributes": {}, "email": "plazamar@elganso.com", "carrier_links": [], "street": "C.C. Plaza Mar 2, Avda De Denia, s/n ", "frontend_description": "None", "enabled": "1", "is_pickup_location_active": "0"}, {"country_id": "ES", "city": "San Sebastián de los Reyes", "fax": "None", "description": "Plaza Norte", "frontend_name": "Plaza Norte", "latitude": "None", "phone": "916591780", "name": "Plaza Norte", "postcode": "28703", "region_id": "161", "use_default_carrier_config": "1", "source_code": "APLN", "longitude": "None", "contact_name": "El Ganso", "region": "Madrid", "extension_attributes": {}, "email": "plazanorte2@elganso.com", "carrier_links": [], "street": "Plaza del Comercio, 11-12", "frontend_description": "None", "enabled": "1", "is_pickup_location_active": "0"}, {"country_id": "ES", "city": "Madrid", "fax": "None", "description": "El Ganso Plaza Rio", "frontend_name": "Plaza Rio", "latitude": "None", "phone": "918484451", "name": "Plaza Rio", "postcode": "28026", "region_id": "161", "use_default_carrier_config": "1", "source_code": "APLR", "longitude": "None", "contact_name": " El Ganso", "region": "Madrid", "extension_attributes": {}, "email": "plazario@elganso.com", "carrier_links": [], "street": "Antonio López, 109-111", "frontend_description": "None", "enabled": "1", "is_pickup_location_active": "0"}, {"country_id": "ES", "city": "Zaragoza", "fax": "None", "description": "El Ganso C.C. Puerto Venecia", "frontend_name": "Puerto Venecia", "latitude": "None", "phone": "976930527", "name": "Puerto Venecia", "postcode": "50021", "region_id": "181", "use_default_carrier_config": "1", "source_code": "APTV", "longitude": "None", "contact_name": "El Ganso - C.C. Puerto Venecia", "region": "Zaragoza", "extension_attributes": {}, "email": "puertovenecia@elganso.com", "carrier_links": [], "street": "Avda. Puerto Venecia s/n Local 128", "frontend_description": "None", "enabled": "1", "is_pickup_location_active": "0"}, {"country_id": "ES", "city": "Barcelona", "fax": "None", "description": "Rambla", "frontend_name": "Rambla", "latitude": "None", "phone": "933682069", "name": "Rambla", "postcode": "08008", "region_id": "139", "use_default_carrier_config": "1", "source_code": "ARAM", "longitude": "None", "contact_name": "El Ganso", "region": "Barcelona", "extension_attributes": {}, "email": "ramblabarcelona@elganso.com", "carrier_links": [], "street": "Rambla Cataluña, 116", "frontend_description": "None", "enabled": "1", "is_pickup_location_active": "0"}, {"country_id": "ES", "city": "Salamanca", "fax": "None", "description": "El Ganso Salamanca", "frontend_name": "Salamanca", "latitude": "None", "phone": "923175860", "name": "Salamanca", "postcode": "37002", "region_id": "169", "use_default_carrier_config": "1", "source_code": "ASAL", "longitude": "None", "contact_name": " El Ganso", "region": "Salamanca", "extension_attributes": {}, "email": "salamanca@elganso.com", "carrier_links": [], "street": "C/ Toro, 66", "frontend_description": "None", "enabled": "1", "is_pickup_location_active": "0"}, {"country_id": "ES", "city": "Santander", "fax": "None", "description": "El Ganso Santander", "frontend_name": "Santander", "latitude": "None", "phone": "942225141", "name": "Santander", "postcode": "39002", "region_id": "143", "use_default_carrier_config": "1", "source_code": "ASAN", "longitude": "None", "contact_name": "El Ganso", "region": "Cantabria", "extension_attributes": {}, "email": "santander@elganso.com", "carrier_links": [], "street": "Juan De Herrera, 5 ", "frontend_description": "None", "enabled": "1", "is_pickup_location_active": "0"}, {"country_id": "ES", "city": "Madrid", "fax": "None", "description": "El Ganso Serrano", "frontend_name": "Serrano", "latitude": "None", "phone": "915458663", "name": "Serrano", "postcode": "28001", "region_id": "161", "use_default_carrier_config": "1", "source_code": "ASER", "longitude": "None", "contact_name": "El Ganso Serrano", "region": "Madrid", "extension_attributes": {}, "email": "serrano@elganso.com", "carrier_links": [], "street": "Serrano, 46", "frontend_description": "None", "enabled": "1", "is_pickup_location_active": "0"}, {"country_id": "ES", "city": "Sevilla", "fax": "None", "description": "Sevilla - Sierpes", "frontend_name": "Sevilla", "latitude": "None", "phone": "954216307", "name": "Sevilla", "postcode": "41004", "region_id": "172", "use_default_carrier_config": "1", "source_code": "ASEV", "longitude": "None", "contact_name": "El Ganso", "region": "Sevilla", "extension_attributes": {}, "email": "sevilla@elganso.com", "carrier_links": [], "street": "Sierpes 61", "frontend_description": "None", "enabled": "1", "is_pickup_location_active": "0"}, {"country_id": "ES", "city": "San Sebastián", "fax": "None", "description": "El Ganso San Sebastian", "frontend_name": "San Sebastian", "latitude": "None", "phone": "943434645", "name": "San Sebastian", "postcode": "20005", "region_id": "152", "use_default_carrier_config": "1", "source_code": "ASSB", "longitude": "None", "contact_name": "El Ganso", "region": "Guipúzcoa", "extension_attributes": {}, "email": "sansebastian@elganso.com", "carrier_links": [], "street": "Loiola, 7", "frontend_description": "None", "enabled": "1", "is_pickup_location_active": "0"}, {"country_id": "ES", "city": "Vigo", "fax": "None", "description": "El Ganso Vigo", "frontend_name": "Vigo", "latitude": "None", "phone": "986220152", "name": "Vigo", "postcode": "36202", "region_id": "168", "use_default_carrier_config": "1", "source_code": "AVIG", "longitude": "None", "contact_name": "El Ganso", "region": "Pontevedra", "extension_attributes": {}, "email": "vigo@elganso.com", "carrier_links": [], "street": "Eduardo Iglesias, 2", "frontend_description": "None", "enabled": "1", "is_pickup_location_active": "0"}, {"country_id": "ES", "city": "Vitoria", "fax": "None", "description": "El Ganso Vitoria", "frontend_name": "Vitoria", "latitude": "None", "phone": "945142470", "name": "Vitoria", "postcode": "01005", "region_id": "131", "use_default_carrier_config": "1", "source_code": "AVIT", "longitude": "None", "contact_name": "El Ganso", "region": "Álava", "extension_attributes": {}, "email": "vitoria@elganso.com", "carrier_links": [], "street": "Eduardo Dato, 3", "frontend_description": "None", "enabled": "1", "is_pickup_location_active": "0"}, {"country_id": "ES", "city": "Valladolid", "fax": "None", "description": "El Ganso Valladolid", "frontend_name": "Valladolid", "latitude": "None", "phone": "983330890", "name": "Valladolid", "postcode": "47001", "region_id": "178", "use_default_carrier_config": "1", "source_code": "AVLL", "longitude": "None", "contact_name": "El Ganso", "region": "Valladolid", "extension_attributes": {}, "email": "valladolid@elganso.com", "carrier_links": [], "street": "Santiago 26", "frontend_description": "None", "enabled": "1", "is_pickup_location_active": "0"}, {"country_id": "ES", "city": "Zaragoza", "fax": "None", "description": "El Ganso Zaragoza", "frontend_name": "Zaragoza", "latitude": "None", "phone": "976221397", "name": "Zaragoza", "postcode": "50001", "region_id": "181", "use_default_carrier_config": "1", "source_code": "AZAR", "longitude": "None", "contact_name": "El Ganso", "region": "Zaragoza", "extension_attributes": {}, "email": "zaragoza@elganso.com", "carrier_links": [], "street": "Jerónimo Zurita 10", "frontend_description": "None", "enabled": "1", "is_pickup_location_active": "0"}, {"country_id": "ES", "city": "Pozuelo de Alarcon", "fax": "None", "description": "Zielo", "frontend_name": "Zielo", "latitude": "None", "phone": "917086575", "name": "Zielo", "postcode": "28224", "region_id": "161", "use_default_carrier_config": "1", "source_code": "AZIE", "longitude": "None", "contact_name": "El Ganso", "region": "Madrid", "extension_attributes": {}, "email": "zielo@elganso.com", "carrier_links": [], "street": "Avda de Europa 26B 2ª Planta - Local 204", "frontend_description": "None", "enabled": "1", "is_pickup_location_active": "0"}, {"country_id": "PT", "city": "Lisboa", "fax": "None", "description": "El Ganso Chiado", "frontend_name": "El Ganso Chiado", "latitude": "None", "phone": "+351 213 468", "name": "El Ganso Chiado", "postcode": "1200-288", "region_id": "599", "use_default_carrier_config": "1", "source_code": "ANOV", "longitude": "None", "contact_name": "El Ganso Chiado", "region": "Lisboa", "extension_attributes": {}, "email": "novadoalmadalisboa@elganso.com", "carrier_links": [], "street": "￼Rua Nova do Almada, 79", "frontend_description": "None", "enabled": "1", "is_pickup_location_active": "0"}, {"country_id": "ES", "city": "Pozuelo", "fax": "None", "description": "El Ganso The Atypical Project", "frontend_name": "The Atypical Project", "latitude": "None", "phone": "616858639", "name": "The Atypical Project", "postcode": "28224", "region_id": "161", "use_default_carrier_config": "1", "source_code": "APRJ", "longitude": "None", "contact_name": "Naira Regúlez", "region": "Madrid", "extension_attributes": {}, "email": "naira@theatypicalproject.com", "carrier_links": [], "street": "Francisco Y José Martín Granizo 12", "frontend_description": "None", "enabled": "1", "is_pickup_location_active": "0"}, {"country_id": "ES", "city": "San Vicente del Raspeig", "fax": "None", "description": "El Ganso coolbottles", "frontend_name": "Coolbottles", "latitude": "None", "phone": "627113527", "name": "Coolbottles", "postcode": "03690", "region_id": "133", "use_default_carrier_config": "1", "source_code": "CLBT", "longitude": "None", "contact_name": "El Ganso", "region": "Alicante", "extension_attributes": {}, "email": "angelvicedo@coolbottlesco.com", "carrier_links": [], "street": "Polígono Industrial de Canastell, calle del Vidrio, 3. Nave 3", "frontend_description": "None", "enabled": "1", "is_pickup_location_active": "0"}, {"country_id": "ES", "city": "Madrid", "fax": "None", "description": "El Ganso Illeta Label", "frontend_name": "Illeta Label", "latitude": "None", "phone": "636765641", "name": "Illeta Label", "postcode": "Calle Fuencarral 124 Local 2", "region_id": "161", "use_default_carrier_config": "1", "source_code": "ILBL", "longitude": "None", "contact_name": "Marcos", "region": "Madrid", "extension_attributes": {}, "email": "marcos@illetalabel.com", "carrier_links": [], "street": "28010", "frontend_description": "None", "enabled": "1", "is_pickup_location_active": "0"}, {"country_id": "ES", "city": "Yeles", "fax": "None", "description": "El Ganso Moonwater", "frontend_name": "Moonwater", "latitude": "None", "phone": "662472200", "name": "Moonwater", "postcode": "45220", "region_id": "176", "use_default_carrier_config": "1", "source_code": "MNWT", "longitude": "None", "contact_name": "Toni Aparisi", "region": "Toledo", "extension_attributes": {}, "email": "info@moonwaterdrink.com", "carrier_links": [], "street": "Carretera Serranillos, Núm. 2", "frontend_description": "None", "enabled": "1", "is_pickup_location_active": "0"}], "status": "processing"}